{"type": "FeatureCollection", "name": "osm_gis_osm_natural_free_1_preview", "crs": {"type": "name", "properties": {"name": "urn:ogc:def:crs:OGC:1.3:CRS84"}}, "features": [{"type": "Feature", "properties": {"fclass": "tree", "name": null}, "geometry": {"type": "Point", "coordinates": [-8.39946, 39.45841]}}, {"type": "Feature", "properties": {"fclass": "tree", "name": null}, "geometry": {"type": "Point", "coordinates": [-8.39949, 39.4585]}}, {"type": "Feature", "properties": {"fclass": "tree", "name": null}, "geometry": {"type": "Point", "coordinates": [-8.39934, 39.45859]}}, {"type": "Feature", "properties": {"fclass": "tree", "name": null}, "geometry": {"type": "Point", "coordinates": [-8.39919, 39.4586]}}, {"type": "Feature", "properties": {"fclass": "peak", "name": "Barquinha"}, "geometry": {"type": "Point", "coordinates": [-8.41547, 39.46457]}}, {"type": "Feature", "properties": {"fclass": "peak", "name": "Éguas"}, "geometry": {"type": "Point", "coordinates": [-8.41587, 39.49141]}}, {"type": "Feature", "properties": {"fclass": "peak", "name": null}, "geometry": {"type": "Point", "coordinates": [-8.42261, 39.4961]}}, {"type": "Feature", "properties": {"fclass": "tree", "name": null}, "geometry": {"type": "Point", "coordinates": [-8.39912, 39.45855]}}, {"type": "Feature", "properties": {"fclass": "tree", "name": null}, "geometry": {"type": "Point", "coordinates": [-8.39906, 39.45865]}}, {"type": "Feature", "properties": {"fclass": "tree", "name": null}, "geometry": {"type": "Point", "coordinates": [-8.39893, 39.45869]}}, {"type": "Feature", "properties": {"fclass": "tree", "name": null}, "geometry": {"type": "Point", "coordinates": [-8.39886, 39.45874]}}, {"type": "Feature", "properties": {"fclass": "peak", "name": "Cascalheira"}, "geometry": {"type": "Point", "coordinates": [-8.3338, 39.50732]}}, {"type": "Feature", "properties": {"fclass": "peak", "name": "Tapadas"}, "geometry": {"type": "Point", "coordinates": [-8.36388, 39.50895]}}]}