{"type": "FeatureCollection", "name": "osm_gis_osm_natural_free_1_preview", "crs": {"type": "name", "properties": {"name": "urn:ogc:def:crs:OGC:1.3:CRS84"}}, "features": [{"type": "Feature", "properties": {"fclass": "tree", "name": null}, "geometry": {"type": "Point", "coordinates": [-8.44602, 39.18347]}}, {"type": "Feature", "properties": {"fclass": "peak", "name": "Figueiras"}, "geometry": {"type": "Point", "coordinates": [-8.41733, 39.33615]}}, {"type": "Feature", "properties": {"fclass": "tree", "name": null}, "geometry": {"type": "Point", "coordinates": [-8.47585, 39.34142]}}, {"type": "Feature", "properties": {"fclass": "peak", "name": "Cabeça Alta"}, "geometry": {"type": "Point", "coordinates": [-8.46057, 39.34168]}}, {"type": "Feature", "properties": {"fclass": "tree", "name": null}, "geometry": {"type": "Point", "coordinates": [-8.47635, 39.34202]}}, {"type": "Feature", "properties": {"fclass": "tree", "name": null}, "geometry": {"type": "Point", "coordinates": [-8.4397, 39.39169]}}, {"type": "Feature", "properties": {"fclass": "spring", "name": "Nascente da Ribeira do Vale da Vaca"}, "geometry": {"type": "Point", "coordinates": [-8.40135, 39.40897]}}, {"type": "Feature", "properties": {"fclass": "spring", "name": "Mãe de Agua"}, "geometry": {"type": "Point", "coordinates": [-8.40906, 39.41638]}}, {"type": "Feature", "properties": {"fclass": "tree", "name": null}, "geometry": {"type": "Point", "coordinates": [-8.41474, 39.42149]}}, {"type": "Feature", "properties": {"fclass": "tree", "name": null}, "geometry": {"type": "Point", "coordinates": [-8.4343, 39.44083]}}]}