{"type": "FeatureCollection", "name": "osm_gis_osm_natural_free_1_preview", "crs": {"type": "name", "properties": {"name": "urn:ogc:def:crs:OGC:1.3:CRS84"}}, "features": [{"type": "Feature", "properties": {"fclass": "peak", "name": "Gardete"}, "geometry": {"type": "Point", "coordinates": [-7.796, 39.55185]}}, {"type": "Feature", "properties": {"fclass": "peak", "name": "Cabeço da Velha"}, "geometry": {"type": "Point", "coordinates": [-7.7714, 39.59684]}}, {"type": "Feature", "properties": {"fclass": "peak", "name": null}, "geometry": {"type": "Point", "coordinates": [-7.79711, 39.59917]}}, {"type": "Feature", "properties": {"fclass": "peak", "name": null}, "geometry": {"type": "Point", "coordinates": [-7.74618, 39.62131]}}, {"type": "Feature", "properties": {"fclass": "peak", "name": "Alteza"}, "geometry": {"type": "Point", "coordinates": [-7.74255, 39.65703]}}, {"type": "Feature", "properties": {"fclass": "peak", "name": null}, "geometry": {"type": "Point", "coordinates": [-7.74411, 39.67141]}}, {"type": "Feature", "properties": {"fclass": "peak", "name": null}, "geometry": {"type": "Point", "coordinates": [-7.74121, 39.67388]}}, {"type": "Feature", "properties": {"fclass": "peak", "name": null}, "geometry": {"type": "Point", "coordinates": [-7.77787, 39.68173]}}, {"type": "Feature", "properties": {"fclass": "peak", "name": null}, "geometry": {"type": "Point", "coordinates": [-7.72226, 39.69019]}}, {"type": "Feature", "properties": {"fclass": "peak", "name": null}, "geometry": {"type": "Point", "coordinates": [-7.73116, 39.69986]}}, {"type": "Feature", "properties": {"fclass": "peak", "name": null}, "geometry": {"type": "Point", "coordinates": [-7.61113, 39.66301]}}, {"type": "Feature", "properties": {"fclass": "peak", "name": null}, "geometry": {"type": "Point", "coordinates": [-7.69568, 39.66969]}}, {"type": "Feature", "properties": {"fclass": "tree", "name": null}, "geometry": {"type": "Point", "coordinates": [-7.64005, 39.67258]}}, {"type": "Feature", "properties": {"fclass": "tree", "name": null}, "geometry": {"type": "Point", "coordinates": [-7.64001, 39.67263]}}, {"type": "Feature", "properties": {"fclass": "tree", "name": null}, "geometry": {"type": "Point", "coordinates": [-7.64, 39.67265]}}, {"type": "Feature", "properties": {"fclass": "peak", "name": "Penedo Gordo"}, "geometry": {"type": "Point", "coordinates": [-7.70055, 39.6781]}}, {"type": "Feature", "properties": {"fclass": "tree", "name": null}, "geometry": {"type": "Point", "coordinates": [-7.63154, 39.68586]}}, {"type": "Feature", "properties": {"fclass": "peak", "name": "Sabrosa"}, "geometry": {"type": "Point", "coordinates": [-7.51227, 39.68692]}}, {"type": "Feature", "properties": {"fclass": "peak", "name": null}, "geometry": {"type": "Point", "coordinates": [-7.51446, 39.68809]}}, {"type": "Feature", "properties": {"fclass": "peak", "name": null}, "geometry": {"type": "Point", "coordinates": [-7.66383, 39.69501]}}, {"type": "Feature", "properties": {"fclass": "peak", "name": "Serra do Perdigão"}, "geometry": {"type": "Point", "coordinates": [-7.73759, 39.70095]}}, {"type": "Feature", "properties": {"fclass": "peak", "name": "Almeirão"}, "geometry": {"type": "Point", "coordinates": [-7.74, 39.72252]}}, {"type": "Feature", "properties": {"fclass": "peak", "name": "Alvaiade"}, "geometry": {"type": "Point", "coordinates": [-7.71901, 39.70456]}}, {"type": "Feature", "properties": {"fclass": "peak", "name": "Alfrívida"}, "geometry": {"type": "Point", "coordinates": [-7.53758, 39.72714]}}]}